Date;Time;Latitude [mins];Longitude [mins];C.O.G. [deg];S.O.G. [kn];Heading [deg];Roll [deg];Pitch [deg];Rel Wdir M [deg];Rel Wspd M [kn];True Wdir M [deg];True Wspd M [kn];Temp [°C];RH [%];ATM [mb];RPM Port [RPM];TORQUE Port [kNm];RUDDER Port [Deg];T1 Port [kW];T2 Port [kW];RPM Stb [RPM];TORQUE Stb [kNm];RUDDER Stb [Deg];T1 Stb [kW];T2 Stb [kW];Channel 3-3 C [EU];Channel 3-4 C [EU];Channel 3-5 C [EU];Channel 3-6 C [EU];Channel 3-7 C [EU];Channel 3-8 C [EU]
25.05.2025;10:43:16;2541,1695;957,4401;136,4;17,63;123;0,66;-0,23;141;5,6;294;22,3;19,6;39,5;1008,2;102,17;955,5;-1,1475;5275,46;5185,95;103,296;1011,32;-1,1025;5470,85;5392,89;0;-0,001;-0,001;-0,001;-0,001;-0,001
25.05.2025;10:43:17;2541,166;957,4447;136,3;17,63;123;0,69;-0,21;140;5,7;294;22,3;19,6;39,5;1008,2;102,34;956,841;-1,215;5289,9;5238,89;103,445;1009,61;-1,1025;5441,98;5446,79;0,001;-0,001;-0,001;-0,001;-0,001;-0,001
25.05.2025;10:43:18;2541,1624;957,4492;136,3;17,64;123;0,72;-0,21;139;5,8;293;22,3;19,6;39,5;1008,2;102,17;961,106;-1,215;5265,84;5258,14;103,658;1006,32;-0,945;5424,65;5397,7;0,001;-0,001;-0,001;-0,001;-0,001;-0,001
25.05.2025;10:43:19;2541,1589;957,4538;136,3;17,65;123;0,71;-0,22;140;5,5;294;22,1;19,6;39,5;1008,2;102,489;953,794;-1,035;5266,8;5237,93;103,296;1002,79;-0,675;5477,59;5395,77;0,001;-0,001;-0,001;-0,001;-0,001;-0,001
25.05.2025;10:43:20;2541,1553;957,4584;136,3;17,65;123;0,69;-0,23;138;5,2;294;21,8;19,6;39,5;1008,2;102,17;953,794;-0,8325;5241,77;5261,02;103,296;1002,79;-0,3825;5429,46;5368,83;0;-0,001;-0,001;-0,001;-0,001;-0,001
25.05.2025;10:43:21;2541,1518;957,4629;136,2;17,64;123;0,66;-0,24;140;4,9;295;21,6;19,6;39,5;1008,2;102,404;955,013;-0,5625;5249,48;5212,9;103,148;1001,93;-0,225;5400,59;5366,9;0,001;-0,001;-0,001;-0,001;-0,001;-0,001
25.05.2025;10:43:22;2541,1483;957,4675;136,2;17,62;123;0,65;-0,27;143;4,4;296;21,3;19,6;39,5;1008,2;102,595;955,378;-0,2475;5266,8;5210,98;103,296;999,009;-0,045;5354,39;5336,1;0,001;-0,001;-0,001;-0,001;-0,001;-0,001
25.05.2025;10:43:23;2541,1447;957,4721;136,1;17,62;123;0,59;-0,27;148;4;297;21,1;19,6;39,5;1008,2;102,404;953,428;-0,2025;5237,93;5262,95;102,978;1001,33;-0,045;5412,14;5421,76;0;-0,001;-0,001;-0,001;-0,001;-0,001
25.05.2025;10:43:24;2541,1412;957,4766;136,2;17,63;123;0,56;-0,27;152;3,8;298;21,1;19,6;39,5;1008,2;102,404;953,428;-0,09;5244,66;5179,21;103,19;1003,52;-0,09;5393,85;5352,46;0,001;-0,001;-0,001;-0,001;-0,001;-0,001
25.05.2025;10:43:25;2541,1377;957,4812;136,2;17,63;123;0,53;-0,27;154;3,7;299;21;19,6;39,5;1008,2;102,468;952,941;-0,09;5276,43;5185,95;102,978;1005,1;-0,135;5450,64;5378,45;0,001;-0,001;-0,001;-0,001;-0,001;-0,001
25.05.2025;10:43:26;2541,1341;957,4858;136,3;17,64;123;0,51;-0,28;154;3,5;299;20,8;19,6;39,5;1008,2;102,468;953,428;-0,1575;5258,14;5191,73;103,19;1006,81;-0,2475;5370,75;5416,95;0,001;-0,001;-0,001;-0,001;-0,001;-0,001
25.05.2025;10:43:27;2541,1306;957,4904;136,3;17,64;123;0,5;-0,29;155;3,2;299;20,6;19,6;39,5;1008,2;102,404;954,403;-0,315;5240,81;5250,44;102,935;1005,47;-0,315;5441,98;5378,45;0,001;-0,001;-0,001;-0,001;-0,001;-0,001
25.05.2025;10:43:28;2541,127;957,4949;136,4;17,63;123;0,51;-0,29;154;2,9;299;20,3;19,6;39,5;1008,2;102,404;956,353;-0,4275;5242,74;5210,01;103,148;1002,79;-0,315;5426,58;5396,74;0;-0,001;-0,001;-0,001;-0,001;-0,001
25.05.2025;10:43:29;2541,1235;957,4995;136,4;17,63;123;0,53;-0,29;153;2,7;299;20,1;19,6;39,5;1008,2;102,595;950,747;-0,4275;5219,64;5256,21;103,084;1002,42;-0,4275;5407,33;5316,85;0;-0,001;-0,001;-0,001;-0,001;-0,001
25.05.2025;10:43:30;2541,1199;957,504;136,4;17,63;123;0,56;-0,28;155;2,7;300;20,1;19,6;39,5;1008,2;102,51;954,403;-0,5175;5244,66;5206,16;102,999;1007,3;-0,5175;5428,5;5431,39;0;-0,001;-0,001;-0,001;-0,001;-0,001
25.05.2025;10:43:31;2541,1164;957,5086;136,5;17,64;123;0,58;-0,28;153;2,9;299;20,3;19,6;39,5;1008,2;102,51;948,675;-0,765;5253,33;5215,79;102,999;1006,69;-0,7425;5446,79;5436,2;0;-0,001;-0,001;-0,001;-0,001;-0,001
25.05.2025;10:43:32;2541,1128;957,5131;136,5;17,65;123;0,61;-0,27;149;3,3;298;20,5;19,6;39,5;1008,2;102,383;950,991;-0,8325;5241,77;5208,09;103,466;1006,93;-0,8325;5429,46;5357,27;0,001;-0,001;-0,001;-0,001;-0,001;-0,001
25.05.2025;10:43:33;2541,1093;957,5177;136,4;17,64;123;0,64;-0,27;146;3,7;297;20,8;19,6;39,5;1008,2;102,383;950,991;-0,8325;5241,77;5208,09;103,466;1006,93;-0,8325;5429,46;5357,27;0,001;-0,001;-0,001;-0,001;-0,001;-0,001
25.05.2025;10:43:34;2541,1057;957,5222;136,4;17,63;123;0,66;-0,26;144;4;297;21;19,6;39,5;1008,2;102,51;943,8;-0,945;5219,64;5200,39;103,339;1001,81;-0,945;5415,02;5400,59;0,001;-0,001;-0,001;-0,001;-0,001;-0,001
25.05.2025;10:43:35;2541,1022;957,5268;136,4;17,63;123;0,67;-0,26;143;4,4;296;21,3;19,6;39,5;1008,2;102,553;949,284;-0,8325;5238,89;5179,21;103,19;999,009;-0,8325;5382,3;5372,68;0;-0,001;-0,001;-0,001;-0,001;-0,001
25.05.2025;10:43:36;2541,0986;957,5314;136,4;17,63;123;0,67;-0,26;141;4,8;295;21,6;19,6;39,5;1008,2;102,51;942,581;-0,765;5205,2;5229,26;103,084;1002,91;-0,8325;5397,7;5402,51;0,001;-0,001;-0,001;-0,001;-0,001;-0,001
25.05.2025;10:43:37;2541,0951;957,5359;136,3;17,64;123;0,66;-0,25;141;5,3;294;22;19,6;39,5;1008,2;102,213;947,7;-0,765;5232,15;5159;103,403;999,984;-0,63;5395,77;5370,75;0,001;-0,001;-0,001;-0,001;-0,001;-0,001
25.05.2025;10:43:38;2541,0916;957,5405;136,3;17,64;123;0,65;-0,27;143;5,7;294;22,5;19,6;39,5;1008,2;102,213;947,944;-0,72;5177,29;5221,56;103,211;1000,35;-0,495;5396,74;5415,02;0,001;-0,001;-0,001;-0,001;-0,001;-0,001
25.05.2025;10:43:39;2541,088;957,545;136,3;17,64;123;0,65;-0,26;142;6;294;22,7;19,6;39,5;1008,2;102,021;948,675;-0,6975;5226,37;5204,24;103,36;996,45;-0,3825;5389,04;5385,19;0,001;-0,001;-0,001;-0,001;-0,001;-0,001
25.05.2025;10:43:40;2541,0845;957,5496;136,3;17,65;123;0,64;-0,27;141;6,3;293;22,9;19,6;39,5;1008,2;101,979;952,819;-0,6975;5261,02;5217,71;103,211;996,45;-0,2475;5362,09;5400,59;0,001;-0,001;-0,001;-0,001;-0,001;-0,001
25.05.2025;10:43:41;2541,0809;957,5542;136,2;17,64;123;0,63;-0,28;139;6,3;293;22,8;19,6;39,5;1008,2;101,979;952,819;-0,6975;5261,02;5217,71;103,211;996,45;-0,2475;5362,09;5400,59;0,001;-0,001;-0,001;-0,001;-0,001;-0,001
25.05.2025;10:43:42;2541,0774;957,5588;136,2;17,63;123;0,63;-0,28;138;6,2;292;22,6;19,5;39,2;1008,2;102,404;955,5;-0,6975;5220,6;5241,77;103,36;997,547;-0,27;5390,96;5389,04;0,001;-0,001;-0,001;-0,001;-0,001;-0,001
25.05.2025;10:43:43;2541,0738;957,5633;136,2;17,63;123;0,62;-0,28;137;6,2;292;22,6;19,5;39,2;1008,2;102,021;951,722;-0,6075;5236,96;5290,86;103,19;994,5;-0,2925;5389,04;5390,96;0,001;-0,001;-0,001;-0,001;-0,001;-0,001
25.05.2025;10:43:44;2541,0703;957,5679;136,2;17,64;123;0,63;-0,28;137;6,1;292;22,5;19,5;39,2;1008,2;102,17;956,597;-0,6075;5235,04;5221,56;103,233;998,278;-0,495;5368,83;5425,61;0;-0,001;-0,001;-0,001;-0,001;-0,001
25.05.2025;10:43:45;2541,0668;957,5725;136,3;17,64;123;0,63;-0,28;138;6;293;22,5;19,5;39,2;1008,2;102,043;952,819;-0,6075;5219,64;5261,99;103,339;994,987;-0,495;5319,74;5405,4;0,001;-0,001;-0,001;-0,001;-0,001;-0,001
25.05.2025;10:43:46;2541,0632;957,577;136,4;17,64;123;0,63;-0,28;138;5,7;293;22,2;19,5;39,2;1008,2;102,659;954,037;-0,5625;5287,01;5246,59;103,041;995,719;-0,495;5383,26;5362,09;0;-0,001;-0,001;-0,001;-0,001;-0,001
25.05.2025;10:43:47;2541,0597;957,5816;136,3;17,64;123;0,63;-0,27;139;5,6;293;22,2;19,5;39,2;1008,2;102,701;954,769;-0,6075;5259,1;5174,4;103,211;996,45;-0,495;5420,8;5359,2;0,001;-0,001;-0,001;-0,001;-0,001;-0,001
25.05.2025;10:43:48;2541,0561;957,5862;136,2;17,63;123;0,63;-0,27;141;5,3;294;22;19,5;39,2;1008,2;102,425;948,919;-0,6075;5220,6;5313,96;103,084;995,597;-0,495;5353,43;5374,6;0,001;-0,001;-0,001;-0,001;-0,001;-0,001
25.05.2025;10:43:49;2541,0526;957,5907;136,2;17,63;123;0,63;-0,27;141;5,2;294;21,9;19,5;39,2;1008,2;102,404;951,234;-0,6075;5225,41;5265,84;102,935;999,497;-0,495;5405,4;5386,15;0,001;-0,001;-0,001;-0,001;-0,001;-0,001
25.05.2025;10:43:50;2541,0491;957,5953;136,3;17,64;123;0,61;-0,28;142;5,1;295;21,9;19,5;39,2;1008,2;102,404;949,406;-0,6975;5254,29;5274,5;103,509;997,059;-0,495;5368,83;5359,2;0,001;-0,001;-0,001;-0,001;-0,001;-0,001
25.05.2025;10:43:51;2541,0455;957,5999;136,3;17,63;123;0,6;-0,28;144;4,9;295;21,8;19,5;39,2;1008,2;102,34;952,087;-0,8325;5229,26;5245,62;103,169;993,403;-0,495;5364,01;5302,41;0,001;-0,001;-0,001;-0,001;-0,001;-0,001
25.05.2025;10:43:52;2541,042;957,6044;136,3;17,64;123;0,6;-0,29;144;4,7;296;21,6;19,5;39,2;1008,2;102,043;950,869;-0,945;5224,45;5241,77;103,19;994,013;-0,585;5362,09;5390,96;0,001;-0,001;-0,001;-0,001;-0,001;-0,001
25.05.2025;10:43:53;2541,0384;957,609;136,3;17,64;123;0,6;-0,29;144;4,5;296;21,4;19,5;39,2;1008,2;102,446;952,575;-1,125;5224,45;5229,26;102,999;998,644;-0,6525;5385,19;5364,01;0,001;-0,001;-0,001;-0,001;-0,001;-0,001
25.05.2025;10:43:54;2541,0349;957,6136;136,3;17,63;123;0,61;-0,29;144;4,3;296;21,3;19,5;39,2;1008,2;102,638;950,625;-1,215;5241,77;5257,18;103,084;996,694;-0,6525;5368,83;5420,8;0,001;-0,001;-0,001;-0,001;-0,001;-0,001
25.05.2025;10:43:55;2541,0313;957,6181;136,3;17,63;123;0,6;-0,29;145;4;297;21;19,5;39,2;1008,2;102,489;950,381;-1,215;5262,95;5235,04;102,744;995,231;-0,6525;5410,21;5457,37;0,001;-0,001;-0,001;-0,001;-0,001;-0,001
25.05.2025;10:43:56;2541,0278;957,6227;136,3;17,64;123;0,59;-0,29;145;4;297;21;19,5;39,2;1008,2;102,043;947,578;-1,125;5200,39;5209,05;103,296;999,009;-0,6525;5350,54;5373,64;0,001;-0,001;-0,001;-0,001;-0,001;-0,001
25.05.2025;10:43:57;2541,0243;957,6272;136,4;17,63;123;0,57;-0,29;143;4;296;21;19,5;39,2;1008,2;102,234;954,037;-0,945;5261,02;5275,46;103,041;994,256;-0,585;5374,6;5436,2;0,001;-0,001;-0,001;-0,001;-0,001;-0,001
25.05.2025;10:43:58;2541,0207;957,6318;136,3;17,64;123;0,55;-0,29;143;4,2;296;21,1;19,5;39,2;1008,2;102,361;945,994;-0,7875;5255,25;5197,5;103,211;997,669;-0,585;5364,01;5462,19;0,001;-0,001;-0,001;-0,001;-0,001;-0,001
25.05.2025;10:43:59;2541,0172;957,6364;136,3;17,64;123;0,54;-0,29;143;4,2;296;21,1;19,5;39,2;1008,2;102,404;945,994;-0,6975;5205,2;5261,02;103,148;995,841;-0,5625;5392,89;5431,39;0,001;-0,001;-0,001;-0,001;-0,001;-0,001
25.05.2025;10:44:00;2541,0136;957,6409;136,4;17,65;123;0,53;-0,3;144;4,3;296;21,3;19,5;39,2;1008,2;102,234;949,894;-0,6075;5226,37;5220,6;103,211;997,912;-0,585;5419,84;5441,98;0,001;-0,001;-0,001;-0,001;-0,001;-0,001
25.05.2025;10:44:01;2541,0101;957,6455;136,5;17,65;123,1;0,55;-0,3;143;4,5;296;21,4;19,5;39,2;1008,2;102,659;950,747;-0,6075;5281,24;5228,3;103,466;989,259;-0,63;5408,29;5355,35;0,001;-0,001;-0,001;-0,001;-0,001;-0,001
25.05.2025;10:44:02;2541,0065;957,65;136,6;17,65;123,1;0,57;-0,29;144;4,7;296;21,6;19,5;39,2;1008,2;102,361;946,116;-0,6075;5201,35;5279,31;103,339;993,403;-0,585;5377,49;5389,04;0,001;-0,001;-0,001;-0,001;-0,001;-0,001
25.05.2025;10:44:03;2541,0029;957,6546;136,5;17,66;123,1;0,61;-0,28;146;4,8;296;21,8;19,5;39,2;1008,2;102,531;948,919;-0,6075;5238,89;5279,31;103,062;994,013;-0,585;5356,31;5404,44;0;-0,001;-0,001;-0,001;-0,001;-0,001
25.05.2025;10:44:04;2540,9994;957,6591;136,4;17,63;123,1;0,65;-0,27;146;4,8;296;21,8;19,5;39,2;1008,2;102,34;946,116;-0,6075;5250,44;5254,29;103,105;998,766;-0,585;5323,59;5378,45;0,001;-0,001;-0,001;-0,001;-0,001;-0,001
25.05.2025;10:44:05;2540,9958;957,6637;136,5;17,64;123,1;0,68;-0,26;144;4,9;295;21,8;19,5;39,2;1008,2;102,276;945,506;-0,5175;5200,39;5256,21;103,148;992,184;-0,3825;5397,7;5390,96;0;-0,001;-0,001;-0,001;-0,001;-0,001
25.05.2025;10:44:06;2540,9923;957,6682;136,5;17,65;123,1;0,71;-0,26;143;4,7;296;21,6;19,5;39,2;1008,2;102,701;947,944;-0,4275;5249,48;5262,95;103,02;994,744;-0,045;5371,71;5400,59;0,001;-0,001;-0,001;-0,001;-0,001;-0,001
25.05.2025;10:44:07;2540,9887;957,6728;136,4;17,65;123,1;0,72;-0,26;142;4,5;296;21,4;19,5;39,2;1008,2;102,021;945,75;-0,3375;5161,89;5232,15;102,489;999,619;0,0675;5337,06;5460,26;0,001;-0,001;-0,001;-0,001;-0,001;-0,001
25.05.2025;10:44:08;2540,9852;957,6774;136,4;17,64;123,1;0,72;-0,26;139;4,4;295;21,2;19,5;39,2;1008,2;102,064;950,138;-0,2475;5179,21;5052,16;103,233;996,084;0,2025;5377,49;5398,66;0,001;-0,001;-0,001;-0,001;-0,001;-0,001
25.05.2025;10:44:09;2540,9816;957,6819;136,3;17,63;123,1;0,71;-0,26;138;4,3;295;21;19,5;39,2;1008,2;101,979;953,062;-0,2475;5219,64;5087,77;102,786;995,353;0,2925;5393,85;5417,91;0,001;-0,001;-0,001;-0,001;-0,001;-0,001
25.05.2025;10:44:10;2540,9781;957,6865;136,2;17,63;123,1;0,68;-0,26;136;4,3;295;20,9;19,5;39,2;1008,2;102,404;951,234;-0,1575;5241,77;5182,1;103,36;1000,47;0,2925;5389,04;5453,52;0,001;-0,001;-0,001;-0,001;-0,001;-0,001
25.05.2025;10:44:11;2540,9745;957,6911;136,2;17,62;123,1;0,63;-0,26;134;4,1;295;20,7;19,5;39,2;1008,2;102,404;951,234;-0,1575;5241,77;5182,1;103,36;1000,47;0,2925;5389,04;5453,52;0,001;-0,001;-0,001;-0,001;-0,001;-0,001
25.05.2025;10:44:12;2540,971;957,6956;136,2;17,63;123,1;0,58;-0,27;132;4,1;295;20,6;19,5;39,2;1008,2;102,127;953,428;-0,135;5224,45;5263,91;103,148;999,131;0,2925;5391,93;5427,54;0,001;-0,001;-0,001;-0,001;-0,001;-0,001
25.05.2025;10:44:13;2540,9675;957,7002;136,2;17,63;123,1;0,53;-0,28;128;4,2;294;20,5;19,5;39,2;1008,2;102;959,766;-0,1575;5262,95;5245,62;103,254;993,281;0,2025;5409,25;5429,46;0,001;-0,001;-0,001;-0,001;-0,001;-0,001
25.05.2025;10:44:14;2540,9639;957,7048;136,1;17,63;123,1;0,51;-0,3;125;4,1;294;20,3;19,5;39,2;1008,2;102;959,766;-0,1575;5262,95;5245,62;103,254;993,281;0,2025;5409,25;5429,46;0,001;-0,001;-0,001;-0,001;-0,001;-0,001
25.05.2025;10:44:15;2540,9604;957,7093;136,2;17,64;123,1;0,49;-0,31;122;4;293;20,1;19,5;39,2;1008,2;102,234;959,766;-0,135;5283,16;5209,05;103,36;990,112;0,18;5441,01;5466,04;0,001;-0,001;-0,001;-0,001;-0,001;-0,001
25.05.2025;10:44:16;2540,9569;957,7139;136,3;17,64;123,1;0,49;-0,31;121;4;293;20;19,5;39,2;1008,2;101,681;960,253;-0,1575;5256,21;5229,26;103,339;990,6;0,2025;5335,14;5364,98;0,001;-0,001;-0,001;-0,001;-0,001;-0,001
25.05.2025;10:44:17;2540,9533;957,7185;136,4;17,63;123,1;0,5;-0,31;118;4;293;19,8;19,5;39,2;1008,2;102,255;963,787;-0,1575;5311,08;5340,91;103,02;990,234;0,18;5345,73;5385,19;0,001;-0,001;-0,001;-0,001;-0,001;-0,001
25.05.2025;10:44:18;2540,9498;957,723;136,4;17,63;123,1;0,52;-0,3;114;4,1;292;19,7;19,5;39,2;1008,2;102,446;958,547;-0,225;5292,79;5334,18;103,02;994,866;-0,2475;5356,31;5392,89;0,001;-0,001;-0,001;-0,001;-0,001;-0,001
25.05.2025;10:44:19;2540,9462;957,7276;136,5;17,63;123,1;0,55;-0,28;112;3,9;292;19,4;19,5;39,2;1008,2;102,531;954,403;-0,765;5307,23;5239,85;103,339;996,816;-0,3825;5453,52;5391,93;0,001;-0,001;-0,001;-0,001;-0,001;-0,001
25.05.2025;10:44:20;2540,9427;957,7321;136,5;17,63;123,1;0,6;-0,27;111;3,8;293;19,3;19,5;39,2;1008,2;103,148;952,941;-0,765;5297,6;5287,01;103,19;993,281;-0,675;5386,15;5417,91;0;-0,001;-0,001;-0,001;-0,001;-0,001
25.05.2025;10:44:21;2540,9391;957,7367;136,4;17,64;123,1;0,63;-0,26;111;4;292;19,4;19,5;39,2;1008,2;102,446;952,697;-0,945;5223,49;5078,15;103,02;992,062;-1,0125;5365,94;5437,16;0;-0,001;-0,001;-0,001;-0,001;-0,001
25.05.2025;10:44:22;2540,9356;957,7412;136,4;17,63;123,1;0,66;-0,26;113;4,3;292;19,7;19,5;39,2;1008,2;102,425;956,475;-1,215;5244,66;5102,21;102,871;995,475;-1,08;5330,33;5423,69;0;-0,001;-0,001;-0,001;-0,001;-0,001
25.05.2025;10:44:23;2540,932;957,7458;136,5;17,63;123,1;0,68;-0,26;115;4,4;292;19,9;19,5;39,2;1008,2;102,085;955,866;-1,125;5220,6;5066,6;102,808;996,937;-0,99;5421,76;5464,11;0,001;-0,001;-0,001;-0,001;-0,001;-0,001
25.05.2025;10:44:24;2540,9284;957,7503;136,5;17,63;123,1;0,71;-0,26;120;4,6;292;20,3;19,5;39,2;1008,2;102,276;951,966;-1,035;5230,23;5050,24;103,19;997,059;-0,8325;5348,61;5422,73;0,001;-0,001;-0,001;-0,001;-0,001;-0,001
25.05.2025;10:44:25;2540,9249;957,7549;136,4;17,63;123,1;0,72;-0,26;126;4,7;293;20,7;19,5;39,2;1008,2;102,319;958,791;-0,7875;5235,04;5113,76;102,808;995,475;-0,6525;5418,87;5422,73;0;-0,001;-0,001;-0,001;-0,001;-0,001
25.05.2025;10:44:26;2540,9214;957,7594;136,4;17,62;123,1;0,71;-0,26;131;4,6;294;20,9;19,5;39,2;1008,2;101,703;959,766;-0,6975;5205,2;5062,75;102,723;998,522;-0,5175;5422,73;5394,81;0;-0,001;-0,001;-0,001;-0,001;-0,001
25.05.2025;10:44:27;2540,9178;957,764;136,3;17,62;123,1;0,68;-0,26;136;4,6;294;21,2;19,5;39,2;1008,2;102,34;960,497;-0,6975;5265,84;5084,89;103,148;1002,91;-0,495;5457,37;5504,54;0,001;-0,001;-0,001;-0,001;-0,001;-0,001
25.05.2025;10:44:28;2540,9143;957,7685;136,2;17,62;123,1;0,63;-0,27;139;4,7;295;21,4;19,5;39,2;1008,2;102,127;958,425;-0,6975;5268,73;5113,76;103,403;998,888;-0,495;5463,15;5471,81;0,001;-0,001;-0,001;-0,001;-0,001;-0,001
25.05.2025;10:44:29;2540,9107;957,7731;136,2;17,62;123,1;0,58;-0,28;143;4,9;295;21,7;19,5;39,2;1008,2;102,064;959,766;-0,5625;5239,85;5060,83;103,148;995,719;-0,495;5389,04;5525,71;0,001;-0,001;-0,001;-0,001;-0,001;-0,001
25.05.2025;10:44:30;2540,9072;957,7777;136,1;17,62;123,1;0,53;-0,29;146;5,1;296;22;19,5;39,2;1008,2;102,085;958,912;-0,5625;5253,33;5108,95;103,275;997,547;-0,495;5415,02;5439,09;0,001;-0,001;-0,001;-0,001;-0,001;-0,001
25.05.2025;10:44:31;2540,9037;957,7822;136,2;17,62;123,1;0,49;-0,3;147;5;296;22;19,5;39,2;1008,2;102,191;959,766;-0,5625;5232,15;5082,96;103,211;991,331;-0,4725;5433,31;5484,33;0,001;-0,001;-0,001;-0,001;-0,001;-0,001
25.05.2025;10:44:32;2540,9001;957,7868;136,3;17,6;123,1;0,47;-0,3;146;4,9;296;21,8;19,5;39,2;1008,2;102,616;960,253;-0,5625;5261,02;5134,94;103,658;994,622;-0,2475;5423,69;5441,98;0,001;-0,001;-0,001;-0,001;-0,001;-0,001
25.05.2025;10:44:33;2540,8966;957,7913;136,4;17,61;123,1;0,46;-0,3;146;4,8;296;21,8;19,5;39,2;1008,2;102,616;959,766;-0,4275;5226,37;5098,36;103,19;993,281;-0,2475;5360,16;5451,6;0,001;-0,001;-0,001;-0,001;-0,001;-0,001
25.05.2025;10:44:34;2540,893;957,7959;136,4;17,61;123,1;0,45;-0,3;143;4,9;295;21,7;19,5;39,2;1008,2;102,234;959,4;-0,3375;5266,8;5062,75;103,19;995,231;-0,045;5364,01;5442,94;0,001;-0,001;-0,001;-0,001;-0,001;-0,001
25.05.2025;10:44:35;2540,8895;957,8004;136,4;17,61;123,1;0,46;-0,3;140;5,2;294;21,9;19,5;39,2;1008,2;102,34;958,059;-0,1575;5260,06;5047,35;103,339;992,55;0,18;5408,29;5496,84;0;-0,001;-0,001;-0,001;-0,001;-0,001
25.05.2025;10:44:36;2540,8859;957,805;136,5;17,62;123,1;0,48;-0,3;136;5,5;293;21,9;19,5;39,2;1008,2;102,404;957,694;0,09;5232,15;5054,09;103,19;992,184;0,4725;5362,09;5455,45;0,001;-0,001;-0,001;-0,001;-0,001;-0,001
25.05.2025;10:44:37;2540,8824;957,8095;136,5;17,61;123,1;0,5;-0,3;134;5,9;292;22,1;19,5;39,2;1008,2;102,51;958,303;0,36;5304,34;5082,96;103,594;988,406;0,5625;5434,27;5423,69;0,001;-0,001;-0,001;-0,001;-0,001;-0,001
25.05.2025;10:44:38;2540,8788;957,8141;136,5;17,61;123,1;0,52;-0,3;134;5,8;292;22;19,5;39,2;1008,2;102,085;960,375;0,36;5213,86;5118,58;103,211;989,747;0,63;5352,46;5490,1;0,001;-0,001;-0,001;-0,001;-0,001;-0,001
25.05.2025;10:44:39;2540,8753;957,8186;136,6;17,61;123,1;0,54;-0,29;130;5,4;292;21,5;19,5;39,2;1008,2;102,361;960,009;0,405;5261,02;5073,34;103,318;987,431;0,63;5382,3;5406,36;0;-0,001;-0,001;-0,001;-0,001;-0,001
25.05.2025;10:44:40;2540,8717;957,8231;136,6;17,6;123,1;0,58;-0,28;129;5;293;21,1;19,5;39,2;1008,2;102,34;961,35;0,405;5236,96;5104,14;103,403;983,775;0,5625;5371,71;5404,44;0;-0,001;-0,001;-0,001;-0,001;-0,001
25.05.2025;10:44:41;2540,8682;957,8277;136,6;17,59;123,1;0,62;-0,27;122;4,6;292;20,4;19,5;39,2;1008,2;101,936;961,959;0,2925;5230,23;5067,56;103,254;986,091;0,4725;5366,9;5429,46;0,001;-0,001;-0,001;-0,001;-0,001;-0,001
25.05.2025;10:44:42;2540,8646;957,8322;136,6;17,6;123,1;0,65;-0,26;129;4,2;294;20,5;19,4;40,6;1008,2;102,085;961,716;0,2025;5258,14;5079,11;103,403;984,019;0,3825;5312,04;5422,73;0,001;-0,001;-0,001;-0,001;-0,001;-0,001
25.05.2025;10:44:43;2540,8611;957,8367;136,5;17,6;123,1;0,69;-0,26;133;3,8;295;20,4;19,4;40,6;1008,2;102,085;963,544;0,045;5253,33;5080,08;103,084;981,581;0,2925;5342,84;5401,55;0,001;-0,001;-0,001;-0,001;-0,001;-0,001
25.05.2025;10:44:44;2540,8576;957,8413;136,5;17,6;123,1;0,71;-0,26;134;3,6;296;20,3;19,4;40,6;1008,2;102,425;963,3;0,0225;5291,83;5124,35;103,19;984,872;0,2025;5320,7;5362,09;0,001;-0,001;-0,001;-0,001;-0,001;-0,001
25.05.2025;10:44:45;2540,854;957,8458;136,5;17,59;123,1;0,71;-0,26;135;3,4;296;20,1;19,4;40,6;1008,2;102,319;963,544;-0,09;5296,64;5073,34;102,978;987,553;0,18;5364,98;5389,04;0,001;-0,001;-0,001;-0,001;-0,001;-0,001
25.05.2025;10:44:46;2540,8505;957,8503;136,3;17,58;123,1;0,68;-0,26;136;3,3;297;20,1;19,4;40,6;1008,2;102,489;965,494;-0,2925;5267,76;5126,27;103,084;987,309;-0,045;5299,52;5432,35;0,001;-0,001;-0,001;-0,001;-0,001;-0,001
25.05.2025;10:44:47;2540,8469;957,8549;136,2;17,59;123,1;0,64;-0,27;136;3,1;297;19,9;19,4;40,6;1008,2;102,085;961,228;-0,45;5262,95;5082,96;103,02;983,287;-0,2925;5330,33;5461,23;0;0;-0,001;-0,001;-0,001;-0,001
25.05.2025;10:44:48;2540,8434;957,8594;136,3;17,59;123,1;0,6;-0,28;137;2,9;297;19,8;19,4;40,6;1008,2;102,127;966,347;-0,5175;5262,95;5123,39;103,169;986,7;-0,225;5331,29;5419,84;0;-0,001;-0,001;-0,001;-0,001;-0,001
25.05.2025;10:44:49;2540,8399;957,864;136,4;17,59;123,1;0,56;-0,29;139;3,1;297;20;19,4;40,6;1008,2;102,021;966,712;-0,6075;5220,6;5073,34;102,765;984,872;-0,135;5371,71;5453,52;0,001;-0,001;-0,001;-0,001;-0,001;-0,001
25.05.2025;10:44:50;2540,8363;957,8685;136,4;17,6;123,1;0,54;-0,3;139;3,3;297;20,2;19,4;40,6;1008,2;102,213;970,856;-0,4275;5347,65;5147,45;103,275;985,725;-0,135;5371,71;5357,27;0,001;-0,001;-0,001;-0,001;-0,001;-0,001
25.05.2025;10:44:51;2540,8328;957,8731;136,4;17,59;123,1;0,52;-0,3;144;3,6;297;20,6;19,4;40,6;1008,2;102,319;975,244;-0,3375;5347,65;5161,89;103,062;985,237;-0,045;5378,45;5434,27;0;-0,001;-0,001;-0,001;-0,001;-0,001
25.05.2025;10:44:52;2540,8292;957,8776;136,4;17,57;123,1;0,5;-0,3;138;3,9;296;20,6;19,4;40,6;1008,2;102,191;970,856;-0,1575;5292,79;5144,56;103,36;988,65;-0,045;5377,49;5452,56;0;-0,001;-0,001;-0,001;-0,001;-0,001
25.05.2025;10:44:53;2540,8257;957,8822;136,4;17,57;123,1;0,49;-0,29;135;4;295;20,6;19,4;40,6;1008,2;102,064;974,513;0;5309,15;5166,7;102,999;984,263;0,135;5383,26;5436,2;0,001;-0,001;-0,001;-0,001;-0,001;-0,001
25.05.2025;10:44:54;2540,8222;957,8867;136,4;17,59;123,1;0,5;-0,29;135;4,1;295;20,7;19,4;40,6;1008,2;101,766;976,462;0,1125;5297,6;5182,1;103,296;983,775;0,135;5344,76;5386,15;0,001;-0,001;-0,001;-0,001;-0,001;-0,001
25.05.2025;10:44:55;2540,8186;957,8913;136,5;17,59;123,1;0,52;-0,29;135;4;295;20,6;19,4;40,6;1008,2;102,276;974,513;0,1125;5338,02;5166,7;103,254;987,187;0,135;5363,05;5424,65;0,001;-0,001;-0,001;-0,001;-0,001;-0,001
25.05.2025;10:44:56;2540,8151;957,8958;136,5;17,59;123,1;0,55;-0,29;136;4;295;20,7;19,4;40,6;1008,2;102,531;976,097;0,2025;5406,36;5154,19;103,403;984,141;0,2025;5342,84;5468,93;0;-0,001;-0,001;-0,001;-0,001;-0,001
25.05.2025;10:44:57;2540,8115;957,9003;136,6;17,59;123,1;0,59;-0,29;136;4,2;295;20,8;19,4;40,6;1008,2;102,446;970,856;0,18;5272,58;5154,19;103,275;980,85;0,2025;5312,04;5403,48;0,001;-0,001;-0,001;-0,001;-0,001;-0,001
25.05.2025;10:44:58;2540,808;957,9049;136,6;17,58;123,1;0,64;-0,28;136;4,4;295;21;19,4;40,6;1008,2;102,085;968,784;0,2025;5297,6;5155,15;103,126;983,287;0,2025;5349,58;5446,79;0,001;-0,001;-0,001;-0,001;-0,001;-0,001
25.05.2025;10:44:59;2540,8044;957,9094;136,5;17,57;123,1;0,66;-0,28;138;4,6;295;21,2;19,4;40,6;1008,2;102,489;971,831;0,18;5339,95;5161,89;103,062;984,872;0,2925;5349,58;5427,54;0,001;-0,001;-0,001;-0,001;-0,001;-0,001
25.05.2025;10:45:00;2540,8009;957,9139;136,4;17,59;123,1;0,68;-0,28;140;4,7;295;21,4;19,4;40,6;1008,2;102,489;971,831;0,18;5339,95;5161,89;103,062;984,872;0,2925;5349,58;5427,54;0,001;-0,001;-0,001;-0,001;-0,001;-0,001
25.05.2025;10:45:01;2540,7974;957,9185;136,3;17,59;123,1;0,68;-0,28;140;5;295;21,7;19,4;40,6;1008,2;102,043;973,659;0,2025;5296,64;5193,65;103,233;987,066;0,2925;5340,91;5364,01;0,001;-0,001;-0,001;-0,001;-0,001;-0,001
25.05.2025;10:45:02;2540,7938;957,923;136,3;17,59;123,1;0,68;-0,28;139;5,1;294;21,7;19,4;40,6;1008,2;101,851;975,975;-0,0225;5287,01;5207,12;102,978;986,456;0,2925;5360,16;5432,35;0,001;-0,001;-0,001;-0,001;-0,001;-0,001
25.05.2025;10:45:03;2540,7903;957,9276;136,2;17,57;123;0,66;-0,27;139;5,3;294;21,9;19,4;40,6;1008,2;102,319;979,388;-0,09;5333,21;5217,71;103,041;984,872;0,2925;5357,27;5451,6;0;-0,001;-0,001;-0,001;-0,001;-0,001
25.05.2025;10:45:04;2540,7868;957,9321;136,2;17,57;123;0,63;-0,27;137;5,3;293;21,8;19,4;40,6;1008,2;102,234;974,878;-0,09;5300,49;5214,83;103,275;985,969;0,2025;5375,56;5445,83;0,001;-0,001;-0,001;-0,001;-0,001;-0,001
25.05.2025;10:45:05;2540,7833;957,9367;136,1;17,57;123;0,62;-0,26;133;5,2;293;21,5;19,4;40,6;1008,2;102,51;977,559;-0,09;5325,51;5220,6;103,084;984,872;0,135;5347,65;5379,41;0;-0,001;-0,001;-0,001;-0,001;-0,001
25.05.2025;10:45:06;2540,7798;957,9413;136,2;17,57;123;0,61;-0,27;131;5,1;293;21,3;19,4;40,6;1008,2;102,659;976,584;-0,0225;5386,15;5174,4;103,084;988,528;0,045;5374,6;5462,19;0,001;-0,001;-0,001;-0,001;-0,001;-0,001
25.05.2025;10:45:07;2540,7762;957,9458;136,2;17,57;123;0,59;-0,28;129;5;292;21,1;19,4;40,6;1008,2;102,361;974,269;-0,0225;5290,86;5152,26;103,254;986,091;-0,135;5342,84;5467,96;0;0;-0,001;-0,001;-0,001;-0,001
25.05.2025;10:45:08;2540,7727;957,9504;136,2;17,58;123;0,59;-0,29;127;4,8;292;20,8;19,4;40,6;1008,2;102,659;973,172;-0,09;5342,84;5193,65;103,424;985,116;-0,315;5360,16;5447,75;0;-0,001;-0,001;-0,001;-0,001;-0,001
25.05.2025;10:45:09;2540,7692;957,9549;136,2;17,58;123;0,59;-0,29;124;4,5;292;20,4;19,4;40,6;1008,2;102,234;977,194;-0,1575;5324,55;5169,59;103,254;977,194;-0,4725;5364,98;5390,96;0,001;-0,001;-0,001;-0,001;-0,001;-0,001
25.05.2025;10:45:10;2540,7657;957,9595;136,2;17,57;123;0,61;-0,28;122;4,3;293;20,2;19,4;40,6;1008,2;102,51;972,928;-0,4275;5318,77;5218,68;102,956;987,066;-0,585;5338,99;5441,01;0,001;-0,001;-0,001;-0,001;-0,001;-0,001
25.05.2025;10:45:11;2540,7621;957,964;136,2;17,57;123;0,62;-0,27;121;3,8;293;19,8;19,4;40,6;1008,2;102,468;974,269;-0,72;5353,43;5173,44;102,978;986,334;-0,6525;5317,81;5440,05;0,001;-0,001;-0,001;-0,001;-0,001;-0,001
25.05.2025;10:45:12;2540,7586;957,9686;136,2;17,57;122,9;0,63;-0,27;119;3,5;294;19,5;19,4;40,6;1008,2;102,298;972,928;-1,1025;5313,96;5214,83;102,978;987,919;-0,6525;5394,81;5316,85;0,001;-0,001;-0,001;-0,001;-0,001;-0,001
25.05.2025;10:45:13;2540,7551;957,9731;136,1;17,57;122,9;0,65;-0,27;120;3,3;294;19,4;19,4;40,6;1008,2;102,021;976,097;-1,215;5318,77;5263,91;102,978;987,675;-0,6975;5331,29;5299,52;0,001;-0,001;-0,001;-0,001;-0,001;-0,001
25.05.2025;10:45:14;2540,7516;957,9777;136,2;17,58;122,9;0,67;-0,26;122;3,4;294;19,6;19,4;40,6;1008,2;102,085;978,534;-1,215;5374,6;5283,16;103,084;986,334;-0,7875;5421,76;5460,26;0,001;-0,001;-0,001;-0,001;-0,001;-0,001
25.05.2025;10:45:15;2540,748;957,9823;136,2;17,57;122,9;0,68;-0,26;124;3,7;294;19,9;19,4;40,6;1008,2;102,574;978,534;-1,125;5363,05;5262,95;103,403;987,431;-0,8325;5339,95;5440,05;0;-0,001;-0,001;-0,001;-0,001;-0,001
25.05.2025;10:45:16;2540,7445;957,9868;136,2;17,57;122,9;0,69;-0,26;126;3,8;294;20;19,4;40,6;1008,2;102,616;975,731;-1,125;5318,77;5225,41;103,169;985,481;-0,9225;5344,76;5463,15;0;-0,001;-0,001;-0,001;-0,001;-0,001
25.05.2025;10:45:17;2540,741;957,9914;136,1;17,56;122,9;0,69;-0,26;128;3,9;294;20,2;19,4;40,6;1008,2;102,234;977,559;-1,125;5384,23;5245,62;103,02;987,066;-0,99;5360,16;5460,26;0,001;-0,001;-0,001;-0,001;-0,001;-0,001
25.05.2025;10:45:18;2540,7375;957,9959;136,2;17,56;122,9;0,69;-0,26;129;4;294;20,3;19,4;40,6;1008,2;102,127;973,781;-1,125;5300,49;5236,96;103,339;987,309;-0,99;5376,52;5441,98;0,001;-0,001;-0,001;-0,001;-0,001;-0,001
25.05.2025;10:45:19;2540,7339;958,0005;136,3;17,56;122,9;0,68;-0,26;130;4,1;294;20,4;19,4;40,6;1008,2;102,489;973,781;-1,125;5343,8;5224,45;103,19;988,528;-1,125;5377,49;5461,23;0,001;-0,001;-0,001;-0,001;-0,001;-0,001
25.05.2025;10:45:20;2540,7304;958,005;136,2;17,57;122,9;0,66;-0,27;131;4,1;294;20,5;19,4;40,6;1008,2;102,298;978,169;-1,2375;5304,34;5266,8;102,935;989,381;-1,17;5311,08;5472,77;0,001;-0,001;-0,001;-0,001;-0,001;-0,001
25.05.2025;10:45:21;2540,7269;958,0096;136,1;17,56;122,9;0,65;-0,27;129;4,2;294;20,5;19,4;40,6;1008,2;102,51;974,269;-1,2825;5347,65;5245,62;102,871;991,087;-1,215;5357,27;5444,86;0,001;-0,001;-0,001;-0,001;-0,001;-0,001
25.05.2025;10:45:22;2540,7234;958,0142;136,1;17,56;122,9;0,63;-0,27;128;4,3;293;20,5;19,4;40,6;1008,2;102,425;975,244;-1,5525;5347,65;5229,26;103,084;990,478;-1,215;5344,76;5436,2;0,001;-0,001;-0,001;-0,001;-0,001;-0,001
25.05.2025;10:45:23;2540,7199;958,0187;136,1;17,57;122,9;0,61;-0,27;127;4,3;293;20,4;19,4;40,6;1008,2;102,595;970,125;-1,845;5327,44;5264,87;103,19;988,041;-1,215;5314,93;5415,02;0,001;-0,001;-0,001;-0,001;-0,001;-0,001
25.05.2025;10:45:24;2540,7164;958,0233;136,1;17,57;122,8;0,6;-0,27;126;4,1;293;20,2;19,4;40,6;1008,2;102,765;968,419;-1,9575;5327,44;5262,95;103,02;993,159;-1,17;5314,93;5302,41;0,001;-0,001;-0,001;-0,001;-0,001;-0,001
25.05.2025;10:45:25;2540,7128;958,0278;136,1;17,56;122,8;0,59;-0,28;125;3,9;294;20,1;19,4;40,6;1008,2;102,489;969,15;-1,89;5299,52;5231,19;102,893;996,206;-1,2825;5349,58;5321,66;0,001;-0,001;-0,001;-0,001;-0,001;-0,001
25.05.2025;10:45:26;2540,7093;958,0324;136,2;17,57;122,9;0,58;-0,28;124;3,7;294;19,9;19,4;40,6;1008,2;102,489;968,175;-1,8;5357,27;5193,65;102,786;993,403;-1,3725;5386,15;5324,55;0,001;-0,001;-0,001;-0,001;-0,001;-0,001
25.05.2025;10:45:27;2540,7058;958,037;136,3;17,57;122,9;0,57;-0,28;122;3,5;294;19,7;19,4;40,6;1008,2;102,489;967,444;-1,71;5320,7;5233,11;103,233;994,622;-1,5525;5333,21;5346,69;0;-0,001;-0,001;-0,001;-0,001;-0,001
25.05.2025;10:45:28;2540,7023;958,0415;136,3;17,57;122,9;0,58;-0,28;121;3,5;294;19,6;19,4;40,6;1008,2;102,064;964,519;-1,6425;5279,31;5234,08;103,19;993,403;-1,665;5335,14;5320,7;0,001;-0,001;-0,001;-0,001;-0,001;-0,001
25.05.2025;10:45:29;2540,6987;958,046;136,3;17,56;122,9;0,6;-0,27;121;3,5;294;19,6;19,4;40,6;1008,2;101,851;967,809;-1,665;5277,39;5196,54;103,19;994,987;-1,8225;5335,14;5296,64;0,001;-0,001;-0,001;-0,001;-0,001;-0,001
25.05.2025;10:45:30;2540,6952;958,0506;136,2;17,58;122,9;0,6;-0,27;122;3,6;294;19,7;19,4;40,6;1008,2;102,106;970,491;-1,4625;5354,39;5225,41;102,978;992,794;-1,7325;5356,31;5333,21;0,001;-0,001;-0,001;-0,001;-0,001;-0,001
25.05.2025;10:45:31;2540,6917;958,0551;136,3;17,57;122,9;0,61;-0,27;123;3,6;294;19,8;19,4;40,6;1008,2;102,17;973,659;-1,2825;5354,39;5273,54;103,041;994,866;-1,485;5356,31;5327,44;0,001;-0,001;-0,001;-0,001;-0,001;-0,001
25.05.2025;10:45:32;2540,6881;958,0597;136,4;17,58;122,9;0,62;-0,27;124;3,6;294;19,8;19,4;40,6;1008,2;102,127;972,441;-1,0125;5321,66;5217,71;102,914;993,037;-1,2825;5343,8;5316,85;0,001;-0,001;-0,001;-0,001;-0,001;-0,001
25.05.2025;10:45:33;2540,6846;958,0642;136,2;17,59;122,9;0,63;-0,27;124;3,6;294;19,8;19,4;40,6;1008,2;102,234;975,975;-0,6525;5294,71;5277,39;102,956;998,156;-0,8775;5416,95;5255,25;0,001;-0,001;-0,001;-0,001;-0,001;-0,001
25.05.2025;10:45:34;2540,6811;958,0688;136,2;17,58;122,9;0,63;-0,28;123;3,5;294;19,7;19,4;40,6;1008,2;102,213;977,681;-0,54;5294,71;5236;102,595;998,522;-0,63;5383,26;5364,98;0,001;-0,001;-0,001;-0,001;-0,001;-0,001
25.05.2025;10:45:35;2540,6776;958,0733;136,3;17,59;122,9;0,64;-0,28;122;3,4;294;19,6;19,4;40,6;1008,2;102,701;977,194;-0,5175;5388,08;5262,95;102,978;1002,79;-0,36;5383,26;5381,34;0,001;-0,001;-0,001;-0,001;-0,001;-0,001
25.05.2025;10:45:36;2540,674;958,0779;136,3;17,58;122,9;0,65;-0,28;121;3,3;295;19,5;19,4;40,6;1008,2;102,871;971,466;-0,4275;5364,98;5286,05;103,318;999,619;-0,2475;5389,04;5379,41;0,001;-0,001;-0,001;-0,001;-0,001;-0,001
25.05.2025;10:45:37;2540,6705;958,0825;136,2;17,59;122,9;0,65;-0,28;123;3,3;295;19,6;19,4;40,6;1008,2;102,51;969,638;-0,4275;5322,62;5212,9;102,999;998,644;-0,315;5368,83;5333,21;0,001;-0,001;-0,001;-0,001;-0,001;-0,001
25.05.2025;10:45:38;2540,667;958,087;136,2;17,58;122,9;0,63;-0,28;124;3,1;295;19,5;19,4;40,6;1008,2;102,574;970,003;-0,4275;5338,99;5230,23;103,19;997,303;-0,27;5391,93;5338,99;0,001;-0,001;-0,001;-0,001;-0,001;-0,001
25.05.2025;10:45:39;2540,6599;958,0961;136,2;17,59;122,9;0,61;-0,28;122;3;295;19,3;19,4;40,6;1008,2;102,978;966,712;-0,4275;5331,29;5299,52;103,19;998,034;-0,27;5365,94;5319,74;0,001;-0,001;-0,001;-0,001;-0,001;-0,001
25.05.2025;10:45:40;2540,6564;958,1007;136,1;17,58;123;0,59;-0,28;120;3;295;19,3;19,4;40,6;1008,2;102,404;967,078;-0,4275;5313;5189,8;102,893;1003,76;-0,315;5405,4;5366,9;0,001;-0,001;-0,001;-0,001;-0,001;-0,001
25.05.2025;10:45:41;2540,6529;958,1053;136,1;17,59;123;0,57;-0,28;120;3;295;19,3;19,4;40,6;1008,2;102,659;964,397;-0,405;5320,7;5248,51;103,148;999,619;-0,315;5377,49;5372,68;0,001;-0,001;-0,001;-0,001;-0,001;-0,001
25.05.2025;10:45:42;2540,6493;958,1098;136,1;17,59;123;0,56;-0,28;119;3;295;19,2;19,3;41,7;1008,2;102,808;962,691;-0,45;5306,26;5224,45;102,829;1001,81;-0,315;5392,89;5313,96;0,001;-0,001;-0,001;-0,001;-0,001;-0,001
25.05.2025;10:45:43;2540,6458;958,1144;136,2;17,59;123;0,56;-0,29;118;3,1;295;19,2;19,3;41,7;1008,2;102,723;959,644;-0,5175;5285,09;5214,83;103,169;1007,54;-0,3825;5415,99;5303,37;0;-0,001;-0,001;-0,001;-0,001;-0,001
25.05.2025;10:45:44;2540,6423;958,119;136,1;17,59;122,9;0,56;-0,29;121;2,9;296;19,2;19,3;41,7;1008,2;102,723;959,644;-0,5175;5285,09;5214,83;103,169;1007,54;-0,3825;5415,99;5303,37;0;-0,001;-0,001;-0,001;-0,001;-0,001
25.05.2025;10:45:45;2540,6388;958,1235;136;17,59;122,9;0,56;-0,29;118;3;295;19,2;19,3;41,7;1008,2;102,468;959,156;-0,6975;5246,59;5204,24;102,999;1006,93;-0,495;5412,14;5348,61;0;-0,001;-0,001;-0,001;-0,001;-0,001
25.05.2025;10:45:46;2540,6353;958,1281;136,1;17,6;122,9;0,56;-0,29;116;3;295;19,1;19,3;41,7;1008,2;102,701;955,5;-0,54;5265,84;5216,75;102,829;1004,62;-0,495;5392,89;5393,85;0;-0,001;-0,001;-0,001;-0,001;-0,001
25.05.2025;10:45:47;2540,6317;958,1327;136,2;17,59;122,9;0,55;-0,29;112;2,9;295;18,9;19,3;41,7;1008,2;102,425;955,866;-0,4275;5231,19;5181,14;102,956;1010,71;-0,3825;5431,39;5365,94;0;-0,001;-0,001;-0,001;-0,001;-0,001
25.05.2025;10:45:48;2540,6282;958,1372;136,2;17,59;122,9;0,56;-0,29;109;3;294;18,8;19,3;41,7;1008,2;102,765;957,084;-0,4275;5281,24;5153,23;103,148;1014,37;-0,4275;5458,34;5392,89;0,001;-0,001;-0,001;-0,001;-0,001;-0,001
25.05.2025;10:45:49;2540,6247;958,1418;136,1;17,6;122,9;0,57;-0,29;106;2,8;295;18,6;19,3;41,7;1008,2;102,425;953,184;-0,3375;5243,7;5169,59;103,148;1004,49;-0,3825;5445,83;5326,48;0,001;-0,001;-0,001;-0,001;-0,001;-0,001
25.05.2025;10:45:50;2540,6211;958,1464;136,2;17,6;122,9;0,59;-0,28;105;2,6;295;18,4;19,3;41,7;1008,2;102,51;955,378;-0,3375;5249,48;5219,64;103,445;1006,2;-0,2925;5415,99;5450,64;0;-0,001;-0,001;-0,001;-0,001;-0,001
25.05.2025;10:45:51;2540,6176;958,1509;136,2;17,58;122,9;0,61;-0,27;107;2,3;296;18,4;19,3;41,7;1008,2;102,213;954,403;-0,3375;5256,21;5169,59;103,551;1006,69;-0,18;5413,1;5347,65;0;-0,001;-0,001;-0,001;-0,001;-0,001
25.05.2025;10:45:52;2540,6141;958,1555;136,1;17,59;122,9;0,63;-0,26;117;2,1;297;18,6;19,3;41,7;1008,2;102,127;958,181;-0,4275;5261,99;5210,01;103,551;999,984;-0,225;5448,71;5342,84;0;-0,001;-0,001;-0,001;-0,001;-0,001
25.05.2025;10:45:53;2540,6106;958,1601;136,1;17,6;122,9;0,65;-0,26;121;1,9;298;18,6;19,3;41,7;1008,2;102,425;957,816;-0,54;5261,02;5222,52;103,403;999,862;-0,225;5394,81;5338,99;0,001;-0,001;-0,001;-0,001;-0,001;-0,001
25.05.2025;10:45:54;2540,607;958,1646;136,1;17,59;122,9;0,64;-0,26;122;1,9;298;18,7;19,3;41,7;1008,2;102,383;953,306;-0,8325;5249,48;5169,59;103,233;1001,2;-0,2475;5394,81;5431,39;0,001;-0,001;-0,001;-0,001;-0,001;-0,001
25.05.2025;10:45:55;2540,6035;958,1692;136,1;17,59;122,9;0,63;-0,27;127;1,9;298;18,8;19,3;41,7;1008,2;102,51;950,747;-1,035;5222,52;5220,6;103,36;1001,08;-0,315;5397,7;5387,11;0,001;-0,001;-0,001;-0,001;-0,001;-0,001
25.05.2025;10:45:56;2540,6;958,1738;136,1;17,6;122,9;0,63;-0,27;129;2;298;18,9;19,3;41,7;1008,2;102,914;946,116;-1,1475;5275,46;5200,39;102,871;999,619;-0,3825;5379,41;5359,2;0,001;-0,001;-0,001;-0,001;-0,001;-0,001
25.05.2025;10:45:57;2540,5965;958,1783;136,1;17,61;122,9;0,63;-0,27;131;2,2;298;19,1;19,3;41,7;1008,2;102,723;950,747;-1,2825;5191,73;5176,33;103,148;1002,3;-0,3825;5374,6;5292,79;0,001;-0,001;-0,001;-0,001;-0,001;-0,001
25.05.2025;10:45:58;2540,593;958,1829;136,1;17,59;122,9;0,61;-0,28;132;2,4;298;19,3;19,3;41,7;1008,2;102,127;948,066;-1,125;5199,43;5228,3;103,084;1001,2;-0,3825;5374,6;5347,65;0,001;-0,001;-0,001;-0,001;-0,001;-0,001
25.05.2025;10:45:59;2540,5894;958,1875;136;17,59;122,9;0,59;-0,28;135;2,5;298;19,4;19,3;41,7;1008,2;102,064;950,503;-0,945;5264,87;5169,59;102,829;1007,42;-0,3825;5368,83;5405,4;0,001;-0,001;-0,001;-0,001;-0,001;-0,001
25.05.2025;10:46:00;2540,5859;958,1921;136;17,6;122,9;0,57;-0,28;137;2,8;297;19,7;19,3;41,7;1008,2;102,234;951,112;-0,8325;5203,27;5212,9;103,148;1008,15;-0,3825;5383,26;5398,66;0,001;-0,001;-0,001;-0,001;-0,001;-0,001
25.05.2025;10:46:01;2540,5824;958,1966;136;17,61;122,9;0,55;-0,28;132;3,1;296;19,8;19,3;41,7;1008,2;101,788;950,747;-0,6975;5186,91;5163,81;103,445;1003,03;-0,4275;5383,26;5369,79;0,001;-0,001;-0,001;-0,001;-0,001;-0,001
25.05.2025;10:46:02;2540,5789;958,2012;136;17,59;122,9;0,55;-0,29;121;3,4;294;19,6;19,3;41,7;1008,2;102,127;960,009;-0,6075;5258,14;5215,79;103,19;1003,76;-0,495;5376,52;5357,27;0,001;-0,001;-0,001;-0,001;-0,001;-0,001
25.05.2025;10:46:03;2540,5754;958,2058;136,1;17,6;122,9;0,56;-0,29;118;3,7;293;19,6;19,3;41,7;1008,2;102,191;957,937;-0,6075;5267,76;5243,7;103,084;1002,79;-0,495;5364,01;5402,51;0,001;-0,001;-0,001;-0,001;-0,001;-0,001
25.05.2025;10:46:04;2540,5718;958,2104;136,2;17,6;122,9;0,57;-0,29;121;3,7;294;19,8;19,3;41,7;1008,2;102,085;959,156;-0,6075;5244,66;5208,09;103,041;1003,76;-0,495;5429,46;5360,16;0;-0,001;-0,001;-0,001;-0,001;-0,001
25.05.2025;10:46:05;2540,5683;958,2149;136,2;17,59;122,9;0,57;-0,28;122;3,6;294;19,7;19,3;41,7;1008,2;101,851;960,009;-0,5625;5214,83;5236;103,211;1001,57;-0,495;5413,1;5368,83;0,001;-0,001;-0,001;-0,001;-0,001;-0,001
25.05.2025;10:46:06;2540,5648;958,2195;136,1;17,6;122,9;0,58;-0,28;126;3,7;294;20;19,3;41,7;1008,2;102,34;959,034;-0,5625;5267,76;5196,54;103,084;1007,66;-0,495;5410,21;5347,65;0;-0,001;-0,001;-0,001;-0,001;-0,001
25.05.2025;10:46:07;2540,5613;958,2241;136,1;17,6;122,9;0,6;-0,28;130;3,7;295;20,2;19,3;41,7;1008,2;101,979;962,934;-0,54;5212,9;5283,16;103,233;1005,22;-0,4275;5373,64;5355,35;0;-0,001;-0,001;-0,001;-0,001;-0,001
25.05.2025;10:46:08;2540,5577;958,2286;136,1;17,6;122,9;0,62;-0,27;136;3,7;296;20,4;19,3;41,7;1008,2;102,276;963,3;-0,54;5323,59;5237,93;103,275;1005,83;-0,4275;5414,06;5391,93;0;-0,001;-0,001;-0,001;-0,001;-0,001
25.05.2025;10:46:09;2540,5542;958,2332;136,1;17,6;122,9;0,62;-0,27;140;3,8;296;20,7;19,3;41,7;1008,2;102,319;962,934;-0,5175;5280,27;5278,35;103,084;1000,72;-0,3825;5420,8;5384,23;0,001;-0,001;-0,001;-0,001;-0,001;-0,001
25.05.2025;10:46:10;2540,5507;958,2378;136,1;17,6;122,9;0,62;-0,27;144;3,9;297;20,9;19,3;41,7;1008,2;102,489;959,888;-0,5625;5323,59;5214,83;103,19;1001,93;-0,3825;5373,64;5364,01;0,001;-0,001;-0,001;-0,001;-0,001;-0,001
25.05.2025;10:46:11;2540,5472;958,2424;136,1;17,6;122,9;0,62;-0,27;148;3,9;297;21;19,3;41,7;1008,2;102,723;958,425;-0,5625;5269,69;5191,73;103,275;995,962;-0,495;5386,15;5472,77;0,001;-0,001;-0,001;-0,001;-0,001;-0,001
25.05.2025;10:46:12;2540,5436;958,2469;136,1;17,6;122,9;0,63;-0,27;153;3,8;298;21,1;19,3;41,7;1008,2;102,361;961,959;-0,6975;5282,2;5265,84;103,233;1002,91;-0,495;5397,7;5397,7;0,001;-0,001;-0,001;-0,001;-0,001;-0,001
25.05.2025;10:46:13;2540,5401;958,2515;136,1;17,6;122,9;0,63;-0,27;156;3,9;299;21,2;19,3;41,7;1008,2;102,106;963,056;-1,125;5318,77;5297,6;103,254;1000,35;-0,495;5392,89;5394,81;0;-0,001;-0,001;-0,001;-0,001;-0,001
25.05.2025;10:46:14;2540,5366;958,2561;136;17,61;122,9;0,63;-0,27;149;3,9;297;21;19,3;41,7;1008,2;102,425;960,619;-1,215;5244,66;5300,49;103,381;997,059;-0,6525;5408,29;5336,1;0;-0,001;-0,001;-0,001;-0,001;-0,001
25.05.2025;10:46:15;2540,5331;958,2607;136,1;17,6;122,9;0,63;-0,27;148;4,3;297;21,4;19,3;41,7;1008,2;102,468;957,694;-1,215;5279,31;5246,59;103,339;999,619;-0,7425;5413,1;5415,02;0;-0,001;-0,001;-0,001;-0,001;-0,001
25.05.2025;10:46:16;2540,5295;958,2652;136,2;17,61;122,9;0,63;-0,27;146;4,6;296;21,6;19,3;41,7;1008,2;102,765;957,45;-1,3725;5263,91;5261,99;103,169;996,816;-0,6525;5389,04;5415,02;0,001;-0,001;-0,001;-0,001;-0,001;-0,001
25.05.2025;10:46:17;2540,526;958,2698;136,1;17,59;122,9;0,62;-0,27;146;4,9;296;21,8;19,3;41,7;1008,2;102,553;950,991;-0,945;5299,52;5255,25;102,999;999,862;-0,585;5347,65;5364,98;0,001;-0,001;-0,001;-0,001;-0,001;-0,001
25.05.2025;10:46:18;2540,5225;958,2744;136;17,6;122,9;0,61;-0,27;145;5,2;295;22,1;19,3;41,7;1008,2;102,808;950,503;-0,945;5263,91;5254,29;103,126;995,962;-0,585;5359,2;5354,39;0,001;-0,001;-0,001;-0,001;-0,001;-0,001
25.05.2025;10:46:19;2540,519;958,279;136;17,61;122,9;0,6;-0,28;144;5,3;295;22,1;19,3;41,7;1008,2;102,723;949,894;-0,8325;5192,69;5251,4;103,148;995,597;-0,585;5388,08;5385,19;0,001;-0,001;-0,001;-0,001;-0,001;-0,001
25.05.2025;10:46:20;2540,5155;958,2835;136,1;17,6;122,9;0,57;-0,28;143;5,4;295;22,2;19,3;41,7;1008,2;102,234;950,381;-0,6075;5250,44;5236,96;102,935;998,888;-0,585;5441,01;5414,06;0;-0,001;-0,001;-0,001;-0,001;-0,001
25.05.2025;10:46:21;2540,5119;958,2881;136,1;17,61;122,9;0,55;-0,29;144;5,6;294;22,4;19,3;41,7;1008,2;102,425;949,528;-0,4275;5229,26;5215,79;103,296;1001,69;-0,585;5433,31;5390;0,001;-0,001;-0,001;-0,001;-0,001;-0,001
25.05.2025;10:46:22;2540,5084;958,2927;136,1;17,6;123;0,53;-0,3;141;5,8;294;22,4;19,3;41,7;1008,2;102,234;950,381;-0,4275;5230,23;5160,93;103,148;996,206;-0,4725;5373,64;5371,71;0,001;-0,001;-0,001;-0,001;-0,001;-0,001
25.05.2025;10:46:23;2540,5049;958,2972;136,1;17,6;123;0,53;-0,3;141;5,9;293;22,5;19,3;41,7;1008,2;102,51;952,575;-0,4275;5230,23;5263,91;103,148;998,522;-0,495;5392,89;5370,75;0,001;-0,001;-0,001;-0,001;-0,001;-0,001
25.05.2025;10:46:24;2540,5014;958,3018;136;17,6;123;0,54;-0,29;142;6,1;293;22,7;19,3;41,7;1008,2;102,17;948,675;-0,4275;5240,81;5257,18;103,169;994,013;-0,495;5392,89;5336,1;0;-0,001;-0,001;-0,001;-0,001;-0,001
25.05.2025;10:46:25;2540,4978;958,3064;136,1;17,59;123;0,55;-0,29;141;5,9;293;22,5;19,3;41,7;1008,2;102,17;948,675;-0,4275;5240,81;5257,18;103,169;994,013;-0,495;5392,89;5336,1;0;-0,001;-0,001;-0,001;-0,001;-0,001
25.05.2025;10:46:26;2540,4943;958,311;136,1;17,6;123;0,57;-0,28;140;5,6;294;22,2;19,3;41,7;1008,2;102,276;949,162;-0,4275;5224,45;5236,96;102,999;994,866;-0,3825;5406,36;5403,48;0,001;-0,001;-0,001;-0,001;-0,001;-0,001
25.05.2025;10:46:27;2540,4908;958,3155;136,2;17,6;123;0,59;-0,28;140;5,4;294;22;19,3;41,7;1008,2;102,234;952,575;-0,4275;5249,48;5219,64;103,19;998,766;-0,3825;5379,41;5422,73;0,001;-0,001;-0,001;-0,001;-0,001;-0,001
25.05.2025;10:46:28;2540,4873;958,3201;136,2;17,6;123;0,61;-0,27;139;5,2;294;21,8;19,3;41,7;1008,2;102,17;953,55;-0,4275;5215,79;5226,37;102,914;1001,93;-0,3825;5379,41;5366,9;0;-0,001;-0,001;-0,001;-0,001;-0,001
25.05.2025;10:46:29;2540,4837;958,3247;136,2;17,6;123;0,65;-0,26;137;5,1;294;21,6;19,3;41,7;1008,2;102,17;954,403;-0,4275;5259,1;5238,89;103,339;998,522;-0,3825;5408,29;5429,46;0,001;-0,001;-0,001;-0,001;-0,001;-0,001
25.05.2025;10:46:30;2540,4802;958,3292;136,1;17,59;123;0,7;-0,25;135;4,8;294;21,3;19,3;41,7;1008,2;102,34;951,234;-0,4275;5201,35;5273,54;103,275;997,912;-0,4275;5389,04;5381,34;0,001;-0,001;-0,001;-0,001;-0,001;-0,001
25.05.2025;10:46:31;2540,4767;958,3338;136;17,58;123;0,72;-0,25;133;4,5;294;20,9;19,3;41,7;1008,2;102,765;953,184;-0,495;5223,49;5309,15;102,744;1001,93;-0,3825;5410,21;5444,86;0,001;-0,001;-0,001;-0,001;-0,001;-0,001
25.05.2025;10:46:32;2540,4732;958,3384;136;17,59;123;0,71;-0,25;131;4,2;294;20,6;19,3;41,7;1008,2;102,701;946,481;-0,5625;5228,3;5278,35;103,658;999,862;-0,495;5393,85;5378,45;0,001;-0,001;-0,001;-0,001;-0,001;-0,001
25.05.2025;10:46:33;2540,4697;958,3429;136;17,58;123;0,69;-0,26;130;3,9;294;20,3;19,3;41,7;1008,2;102,68;947,456;-0,7875;5259,1;5234,08;103,233;996,816;-0,6525;5397,7;5451,6;0,001;-0,001;-0,001;-0,001;-0,001;-0,001
25.05.2025;10:46:34;2540,4661;958,3475;136;17,58;123;0,65;-0,26;127;3,5;295;19,9;19,3;41,7;1008,2;102,531;947,456;-0,855;5215,79;5201,35;103,573;994,378;-0,9225;5379,41;5448,71;0,001;-0,001;-0,001;-0,001;-0,001;-0,001
25.05.2025;10:46:35;2540,4626;958,3521;135,9;17,58;123;0,61;-0,27;124;3,4;295;19,7;19,3;41,7;1008,2;102,404;944,409;-1,035;5228,3;5236,96;103,169;995,719;-1,08;5339,95;5432,35;0,001;-0,001;-0,001;-0,001;-0,001;-0,001
25.05.2025;10:46:36;2540,4591;958,3567;136;17,59;123;0,58;-0,28;121;3,3;295;19,5;19,3;41,7;1008,2;102,17;946,725;-1,2825;5199,43;5205,2;103,36;997,912;-1,17;5388,08;5386,15;0,001;-0,001;-0,001;-0,001;-0,001;-0,001
25.05.2025;10:46:37;2540,4556;958,3612;136,1;17,59;123;0,55;-0,29;118;3,1;295;19,2;19,3;41,7;1008,2;102,404;946,481;-1,3725;5201,35;5272,58;103,318;992,55;-1,17;5412,14;5375,56;0,001;-0,001;-0,001;-0,001;-0,001;-0,001
25.05.2025;10:46:38;2540,4521;958,3658;136,1;17,59;123;0,52;-0,3;116;3;295;19,1;19,3;41,7;1008,2;102,234;948,309;-1,1475;5240,81;5259,1;103,488;994,987;-0,7875;5378,45;5389,04;0,001;-0,001;-0,001;-0,001;-0,001;-0,001
25.05.2025;10:46:39;2540,4486;958,3704;136,1;17,59;123;0,51;-0,3;114;2,8;295;18,9;19,3;41,7;1008,2;102,468;947,334;-0,945;5186,91;5196,54;103,02;994,987;-0,7425;5381,34;5414,06;0,001;-0,001;-0,001;-0,001;-0,001;-0,001
25.05.2025;10:46:40;2540,445;958,3749;136,2;17,58;123;0,5;-0,3;115;2,8;295;18,9;19,3;41,7;1008,2;102,446;947,334;-0,8325;5233,11;5234,08;103,041;995,719;-0,72;5390;5425,61;0,001;-0,001;-0,001;-0,001;-0,001;-0,001
25.05.2025;10:46:41;2540,4415;958,3795;136,2;17,58;123;0,51;-0,29;118;2,9;295;19,1;19,3;41,7;1008,3;102,68;947,334;-0,6975;5184,02;5229,26;103,126;995,719;-0,495;5340,91;5370,75;0;-0,001;-0,001;-0,001;-0,001;-0,001
25.05.2025;10:46:42;2540,438;958,3841;136,1;17,59;123;0,53;-0,29;119;2,9;295;19,2;19,3;38,7;1008,3;102,808;942,703;-0,6075;5151,3;5266,8;102,85;999,375;-0,3825;5403,48;5368,83;0,001;-0,001;-0,001;-0,001;-0,001;-0,001
25.05.2025;10:46:43;2540,4345;958,3886;136,1;17,59;123;0,55;-0,29;120;3,1;295;19,3;19,3;38,7;1008,3;102,468;942,094;-0,6075;5166,7;5212,9;103,211;998,156;-0,225;5388,08;5429,46;0;-0,001;-0,001;-0,001;-0,001;-0,001
25.05.2025;10:46:44;2540,4309;958,3932;136,3;17,6;123;0,58;-0,28;122;3,3;295;19,5;19,3;38,7;1008,3;102,446;941,606;-0,5175;5154,19;5227,34;103,02;995,597;-0,18;5395,77;5389,04;0;-0,001;-0,001;-0,001;-0,001;-0,001
25.05.2025;10:46:45;2540,4274;958,3977;136,3;17,59;123;0,62;-0,27;124;3,4;295;19,7;19,3;38,7;1008,3;102,553;939,534;-0,5175;5198,46;5174,4;103,551;998,278;-0,135;5378,45;5466,04;0;-0,001;-0,001;-0,001;-0,001;-0,001
25.05.2025;10:46:46;2540,4239;958,4023;136,2;17,59;123;0,66;-0,27;127;3,3;295;19,8;19,3;38,7;1008,3;102,489;943,191;-0,5175;5203,27;5281,24;103,743;1012,05;-0,135;5521,86;5532,45;0,001;-0,001;-0,001;-0,001;-0,001;-0,001
25.05.2025;10:46:47;2540,4203;958,4069;136,1;17,59;123;0,68;-0,26;130;3,4;296;19,9;19,3;38,7;1008,3;102,51;947,334;-0,5175;5302,41;5372,68;104,04;1015,58;-0,18;5504,54;5514,16;0,001;-0,001;-0,001;-0,001;-0,001;-0,001
25.05.2025;10:46:48;2540,4168;958,4114;136,1;17,59;123;0,68;-0,26;133;3,4;296;20,1;19,3;38,7;1008,3;102,893;959,4;-0,5175;5373,64;5412,14;103,7;1015,1;-0,225;5544,96;5575,76;0,001;-0,001;-0,001;-0,001;-0,001;-0,001
25.05.2025;10:46:49;2540,4133;958,416;136,1;17,6;123;0,66;-0,26;137;3,6;296;20,4;19,3;38,7;1008,3;103,19;967,444;-0,54;5355,35;5444,86;104,146;1022,41;-0,36;5605,6;5641,21;0;-0,001;-0,001;-0,001;-0,001;-0,001
25.05.2025;10:46:50;2540,4098;958,4206;136,1;17,6;123;0,62;-0,27;140;3,6;297;20,5;19,3;38,7;1008,3;103,19;974,756;-0,6975;5397,7;5415,02;104,146;1023,87;-0,315;5619,08;5672,01;0,001;-0,001;-0,001;-0,001;-0,001;-0,001
25.05.2025;10:46:51;2540,4062;958,4251;136,1;17,61;123;0,59;-0,28;142;3,5;297;20,5;19,3;38,7;1008,3;103,041;978,291;-0,765;5443,9;5258,14;103,976;1028,38;-0,3825;5629,66;5741,31;0;-0,001;-0,001;-0,001;-0,001;-0,001
25.05.2025;10:46:52;2540,4027;958,4297;136,2;17,6;123;0,57;-0,29;141;3,4;297;20,4;19,3;38,7;1008,3;102,914;984,628;-0,9225;5541,11;5499,73;104,295;1027,53;-0,3825;5579,61;5643,14;0,001;-0,001;-0,001;-0,001;-0,001;-0,001
25.05.2025;10:46:53;2540,3992;958,4343;136,3;17,61;123;0,56;-0,29;140;3,3;297;20,3;19,3;38,7;1008,3;103,084;987,675;-0,99;5567,1;5484,33;104,465;1029,11;-0,315;5667,2;5636,4;0;-0,001;-0,001;-0,001;-0,001;-0,001
25.05.2025;10:46:54;2540,3956;958,4388;136,3;17,61;123;0,55;-0,29;141;3,2;297;20,2;19,3;38,7;1008,3;103,318;995,719;-0,8325;5540,15;5565,18;104,529;1032,04;-0,315;5652,76;5699,93;0,001;-0,001;-0,001;-0,001;-0,001;-0,001
25.05.2025;10:46:55;2540,3921;958,4434;136,3;17,6;123,1;0,54;-0,28;140;3,3;297;20,2;19,3;38,7;1008,3;103,403;995,231;-0,6975;5506,46;5559,4;104,338;1034,96;-0,2925;5696,08;5665,27;0;-0,001;-0,001;-0,001;-0,001;-0,001
25.05.2025;10:46:56;2540,3886;958,4479;136,2;17,61;123,1;0,55;-0,28;138;3,3;297;20,2;19,3;38,7;1008,3;103,084;1001,93;-0,4275;5637,36;5598,86;104,486;1034,47;-0,135;5698;5682,6;0,001;-0,001;-0,001;-0,001;-0,001;-0,001
25.05.2025;10:46:57;2540,385;958,4525;136,2;17,61;123,1;0,54;-0,28;135;3,5;296;20,2;19,3;38,7;1008,3;103,976;1004,98;-0,3375;5595,01;5655,65;104,763;1038,13;-0,135;5747,09;5787,51;0,001;-0,001;-0,001;-0,001;-0,001;-0,001
25.05.2025;10:46:58;2540,3815;958,4571;136,2;17,61;123,1;0,54;-0,28;131;3,5;296;20,1;19,3;38,7;1008,3;103,891;1005,35;-0,2475;5624,85;5602,71;104,678;1035,21;-0,135;5782,7;5741,31;0;-0,001;-0,001;-0,001;-0,001;-0,001
25.05.2025;10:46:59;2540,378;958,4616;136,2;17,61;123,1;0,56;-0,29;127;3,7;295;20,1;19,3;38,7;1008,3;104,635;1009,49;-0,1575;5628,7;5644,1;104,741;1029,84;-0,135;5646,02;5753,83;0,001;-0,001;-0,001;-0,001;-0,001;-0,001
25.05.2025;10:47:00;2540,3744;958,4662;136,3;17,62;123,1;0,58;-0,29;123;3,9;294;20;19,3;38,7;1008,3;104,635;1008,03;-0,1575;5621;5605,6;104,826;1031,18;-0,225;5687,41;5764,41;0,001;-0,001;-0,001;-0,001;-0,001;-0,001
25.05.2025;10:47:01;2540,3709;958,4707;136,4;17,61;123,1;0,6;-0,29;119;4,1;293;19,9;19,3;38,7;1008,3;103,998;1005,83;-0,2475;5639,29;5643,14;104,826;1033,87;-0,2925;5648,91;5663,35;0;-0,001;-0,001;-0,001;-0,001;-0,001
25.05.2025;10:47:02;2540,3673;958,4753;136,4;17,61;123,1;0,64;-0,28;118;4,3;292;20;19,3;38,7;1008,3;104,083;1006,69;-0,315;5688,37;5605,6;104,104;1032,16;-0,2925;5686,45;5676,83;0,001;-0,001;-0,001;-0,001;-0,001;-0,001
25.05.2025;10:47:03;2540,3638;958,4798;136,4;17,61;123,1;0,69;-0,27;117;4,4;292;20;19,3;38,7;1008,3;104,083;1011,93;-0,3375;5583,46;5486,25;104,848;1036,3;-0,2925;5713,4;5711,48;0;-0,001;-0,001;-0,001;-0,001;-0,001
25.05.2025;10:47:04;2540,3603;958,4844;136,2;17,61;123,1;0,71;-0,26;118;4,4;292;20,1;19,3;38,7;1008,3;103,721;1012,29;-0,5175;5641,21;5494,91;104,678;1032,65;-0,3825;5674,9;5740,35;0;-0,001;-0,001;-0,001;-0,001;-0,001
25.05.2025;10:47:05;2540,3567;958,489;136,2;17,6;123,1;0,7;-0,25;121;4,4;292;20,2;19,3;38,7;1008,3;104,146;1013,39;-0,5175;5614,26;5443,9;104,635;1032,4;-0,3825;5718,21;5770,19;0,001;-0,001;-0,001;-0,001;-0,001;-0,001
25.05.2025;10:47:06;2540,3532;958,4935;136,1;17,61;123,1;0,68;-0,26;122;4,2;293;20,2;19,3;38,7;1008,3;104,146;1013,27;-0,5175;5670,09;5474,7;104,678;1031,79;-0,3825;5716,29;5733,61;0;-0,001;-0,001;-0,001;-0,001;-0,001
25.05.2025;10:47:07;2540,3497;958,4981;136;17,63;123,1;0,65;-0,27;124;4,1;293;20,2;19,3;38,7;1008,3;104,146;1014,37;-0,5175;5662,39;5436,2;104,614;1033,99;-0,3825;5702,81;5750,94;0;-0,001;-0,001;-0,001;-0,001;-0,001
25.05.2025;10:47:08;2540,3462;958,5027;136;17,63;123,1;0,6;-0,28;129;3,9;294;20,3;19,3;38,7;1008,3;103,849;1011,93;-0,5175;5641,21;5483,36;104,465;1036,06;-0,3825;5723,02;5793,29;0,001;-0,001;-0,001;-0,001;-0,001;-0,001
25.05.2025;10:47:09;2540,3426;958,5073;136,1;17,61;123,1;0,56;-0,29;133;3,8;295;20,4;19,3;38,7;1008,3;103,785;1014,24;-0,5625;5625,81;5489,14;104,508;1033,5;-0,3825;5700,89;5800,02;0,001;-0,001;-0,001;-0,001;-0,001;-0,001
25.05.2025;10:47:10;2540,3391;958,5118;136,1;17,62;123,1;0,52;-0,29;140;3,7;296;20,6;19,3;38,7;1008,3;103,891;1014,97;-0,6975;5696,08;5495,87;104,401;1036,91;-0,3825;5745,16;5825,05;0;-0,001;-0,001;-0,001;-0,001;-0,001
25.05.2025;10:47:11;2540,3356;958,5164;136,2;17,62;123,1;0,49;-0,29;146;3,4;298;20,5;19,3;38,7;1008,3;104,061;1016,32;-0,7875;5653,73;5575,76;104,741;1036,42;-0,3825;5681,64;5747,09;0;-0,001;-0,001;-0,001;-0,001;-0,001
25.05.2025;10:47:12;2540,332;958,521;136,3;17,63;123,1;0,47;-0,3;153;3;299;20,4;19,3;38,7;1008,3;103,7;1020,83;-0,9;5642,18;5523,79;104,529;1036,42;-0,495;5764,41;5766,34;0;-0,001;-0,001;-0,001;-0,001;-0,001
25.05.2025;10:47:13;2540,3285;958,5255;136,4;17,63;123,1;0,48;-0,3;157;3,2;300;20,6;19,3;38,7;1008,3;103,891;1021,31;-1,1025;5682,6;5542,08;104,571;1035,69;-0,585;5696,08;5773,08;0,001;-0,001;-0,001;-0,001;-0,001;-0,001
25.05.2025;10:47:14;2540,3249;958,5301;136,4;17,64;123,1;0,5;-0,3;157;3,4;299;20,8;19,3;38,7;1008,3;103,891;1027,28;-1,035;5654,69;5479,51;104,848;1036,67;-0,585;5658,54;5775,96;0,001;-0,001;-0,001;-0,001;-0,001;-0,001
25.05.2025;10:47:15;2540,3214;958,5347;136,3;17,63;123,1;0,54;-0,29;157;3,6;299;21;19,3;38,7;1008,3;103,403;1028,5;-0,945;5719,18;5535,34;104,55;1032,65;-0,585;5748,05;5756,71;0,001;-0,001;-0,001;-0,001;-0,001;-0,001
25.05.2025;10:47:16;2540,3178;958,5392;136,5;17,63;123,1;0,58;-0,28;158;3,8;299;21,2;19,3;38,7;1008,3;103,87;1030,82;-0,765;5761,52;5498,76;104,72;1038,13;-0,585;5730,73;5779,81;0,001;-0,001;-0,001;-0,001;-0,001;-0,001
25.05.2025;10:47:17;2540,3143;958,5438;136,5;17,64;123,1;0,61;-0,27;159;3,7;300;21,1;19,3;38,7;1008,3;103,849;1028,62;-0,6975;5772,11;5566,14;104,359;1042,03;-0,585;5737,46;5800,02;0;-0,001;-0,001;-0,001;-0,001;-0,001
25.05.2025;10:47:18;2540,3107;958,5483;136,5;17,63;123,1;0,65;-0,26;158;3,8;299;21,2;19,3;38,7;1008,3;103,849;1034,84;-0,3375;5811,58;5583,46;104,593;1041,54;-0,3825;5788,48;5801,95;0;-0,001;-0,001;-0,001;-0,001;-0,001
25.05.2025;10:47:19;2540,3072;958,5529;136,4;17,64;123,1;0,68;-0,26;155;4,1;299;21,4;19,3;38,7;1008,3;104,933;1036,42;-0,1575;5825,05;5577,69;104,486;1046,91;-0,135;5889,54;5919,37;0,001;-0,001;-0,001;-0,001;-0,001;-0,001
25.05.2025;10:47:20;2540,3036;958,5574;136,3;17,63;123,1;0,68;-0,26;153;4,1;298;21,4;19,3;38,7;1008,3;104,848;1034,84;0,09;5787,51;5621,96;105,294;1058,24;0,18;5857,77;5956,91;0;-0,001;-0,001;-0,001;-0,001;-0,001
25.05.2025;10:47:21;2540,3001;958,562;136,2;17,63;123,1;0,66;-0,26;151;4,3;298;21,5;19,3;38,7;1008,3;104,954;1036,06;0,135;5788,48;5603,68;105,889;1065,8;0,2925;5916,49;5939,59;0;-0,001;-0,001;-0,001;-0,001;-0,001
25.05.2025;10:47:22;2540,2966;958,5666;136,2;17,64;123,1;0,64;-0,27;148;4,6;297;21,7;19,3;38,7;1008,3;104,954;1036,67;0,135;5879,91;5697,04;105,591;1063,24;0,2925;5977,12;6035,84;0,001;-0,001;-0,001;-0,001;-0,001;-0,001
25.05.2025;10:47:23;2540,293;958,5711;136,2;17,65;123,1;0,61;-0,27;147;4,6;296;21,7;19,3;38,7;1008,3;104,635;1047,52;0,135;5949,21;5801,95;106,08;1075,3;0,4725;6057,01;6134,01;0;-0,001;-0,001;-0,001;-0,001;-0,001
25.05.2025;10:47:24;2540,2895;958,5757;136,2;17,65;123,1;0,59;-0,28;147;4,4;297;21,5;19,3;38,7;1008,3;105,379;1054,22;0,135;5936,7;5791,36;105,995;1074,33;0,63;6067,6;6082,04;0;-0,001;-0,001;-0,001;-0,001;-0,001
25.05.2025;10:47:25;2540,2859;958,5803;136,2;17,65;123,1;0,56;-0,29;147;4,3;297;21,4;19,3;38,7;1008,3;105,379;1054,22;0,135;5936,7;5791,36;105,995;1074,33;0,63;6067,6;6082,04;0;-0,001;-0,001;-0,001;-0,001;-0,001
25.05.2025;10:47:26;2540,2824;958,5849;136,1;17,65;123,1;0,53;-0,29;147;4,3;297;21,4;19,3;38,7;1008,3;105,251;1060,8;0,135;5966,54;5841,41;106,016;1079,81;0,63;6064,71;6108,02;0;-0,001;-0,001;-0,001;-0,001;-0,001
25.05.2025;10:47:27;2540,2789;958,5894;136,2;17,66;123,1;0,51;-0,3;146;4,5;296;21,5;19,3;38,7;1008,3;105,506;1064,33;0,135;6065,68;5846,23;106,569;1079,45;0,585;6111,87;6241,81;0;-0,001;-0,001;-0,001;-0,001;-0,001
25.05.2025;10:47:28;2540,2753;958,594;136,2;17,66;123,1;0,5;-0,3;147;4,5;297;21,6;19,3;38,7;1008,3;105,676;1066,53;0,09;6017,55;5917,45;106,548;1085,91;0,4725;6103,21;6141,71;0;-0,001;-0,001;-0,001;-0,001;-0,001
25.05.2025;10:47:29;2540,2718;958,5986;136,3;17,66;123,1;0,5;-0,3;145;4,3;296;21,3;19,3;38,7;1008,3;105,591;1075,06;0,045;6094,55;5937,66;106,654;1087,37;0,4725;6160,96;6256,25;0;-0,001;-0,001;-0,001;-0,001;-0,001
25.05.2025;10:47:30;2540,2682;958,6032;136,3;17,67;123,1;0,51;-0,29;141;4,2;296;21,1;19,3;38,7;1008,3;105,74;1079,2;0;6115,73;5899,16;106,441;1084,57;0,3825;6138,83;6159,04;0;-0,001;-0,001;-0,001;-0,001;-0,001
25.05.2025;10:47:31;2540,2647;958,6077;136,4;17,67;123,1;0,53;-0,29;136;4;295;20,7;19,3;38,7;1008,3;105,57;1080,42;-0,0225;6120,54;5830,83;106,484;1087,37;0,2925;6129,2;6185,02;0;-0,001;-0,001;-0,001;-0,001;-0,001
25.05.2025;10:47:32;2540,2611;958,6123;136,4;17,68;123,1;0,56;-0,28;135;3,8;296;20,5;19,3;38,7;1008,3;105,57;1080,54;-0,4275;6154,23;6029,1;106,781;1089,44;-0,09;6183,1;6244,7;0;-0,001;-0,001;-0,001;-0,001;-0,001
25.05.2025;10:47:33;2540,2576;958,6169;136,5;17,68;123,1;0,61;-0,27;132;3,6;296;20,3;19,3;38,7;1008,3;105,74;1088,22;-0,6975;6193,69;6044,5;107,058;1084,44;-0,4725;6160,96;6228,34;0;-0,001;-0,001;-0,001;-0,001;-0,001
25.05.2025;10:47:34;2540,254;958,6214;136,5;17,69;123,1;0,66;-0,27;131;3,4;296;20,1;19,3;38,7;1008,3;106,144;1086,39;-1,17;6136,9;6016,59;107,1;1084,44;-0,855;6136,9;6218,71;0;-0,001;-0,001;-0,001;-0,001;-0,001
25.05.2025;10:47:35;2540,2504;958,626;136,4;17,7;123,1;0,69;-0,26;128;3,3;296;19,9;19,3;38,7;1008,3;105,825;1087,25;-1,2825;6148,45;6040,65;106,866;1082,13;-0,99;6132,09;6266,84;0;-0,001;-0,001;-0,001;-0,001;-0,001
25.05.2025;10:47:36;2540,2469;958,6306;136,3;17,69;123,1;0,71;-0,26;127;3;296;19,6;19,3;38,7;1008,3;106,123;1088,71;-1,215;6178,29;5984,83;107,036;1086,27;-0,8325;6122,46;6231,23;0;-0,001;-0,001;-0,001;-0,001;-0,001
25.05.2025;10:47:37;2540,2433;958,6351;136,3;17,69;123,1;0,71;-0,26;127;2,7;297;19,4;19,3;38,7;1008,3;106,059;1088,71;-0,99;6194,65;6038,73;106,973;1084,2;-0,855;6145,56;6281,27;0;-0,001;-0,001;-0,001;-0,001;-0,001
25.05.2025;10:47:38;2540,2398;958,6397;136,3;17,7;123,1;0,7;-0,26;130;2,5;297;19,4;19,3;38,7;1008,3;106,059;1088,71;-0,99;6194,65;6038,73;106,973;1084,2;-0,855;6145,56;6281,27;0;-0,001;-0,001;-0,001;-0,001;-0,001
25.05.2025;10:47:39;2540,2362;958,6443;136,2;17,71;123,1;0,68;-0,26;137;2,3;298;19,5;19,3;38,7;1008,3;106,314;1088,1;-0,8325;6188,87;6032,95;106,696;1080,54;-0,5625;6117,65;6169,62;0;-0,001;-0,001;-0,001;-0,001;-0,001
25.05.2025;10:47:40;2540,2327;958,6489;136,2;17,7;123,1;0,65;-0,27;141;2,2;299;19,5;19,3;38,7;1008,3;105,995;1086,88;-0,6975;6191,76;6054,12;106,377;1083,22;-0,585;6077,23;6185,99;0;-0,001;-0,001;-0,001;-0,001;-0,001
25.05.2025;10:47:41;2540,2291;958,6535;136,2;17,71;123,1;0,62;-0,27;144;2,3;299;19,6;19,2;40,1;1008,2;105,91;1090,05;-0,6975;6191,76;6081,08;106,377;1079,93;-0,495;6189,84;6224,49;0;-0,001;-0,001;-0,001;-0,001;-0,001
25.05.2025;10:47:42;2540,2256;958,6581;136,2;17,73;123,1;0,58;-0,28;145;2,4;299;19,7;19,2;40,1;1008,2;106,123;1089,44;-0,54;6159,04;6011,77;106,866;1090,66;-0,2925;6157,11;6292,83;0;-0,001;-0,001;-0,001;-0,001;-0,001
25.05.2025;10:47:43;2540,222;958,6627;136,1;17,73;123,1;0,56;-0,29;147;2,5;299;19,9;19,2;40,1;1008,2;106,973;1084,2;-0,5175;6182,14;5965,58;106,951;1086,64;-0,2475;6112,84;6228,34;0;-0,001;-0,001;-0,001;-0,001;-0,001
25.05.2025;10:47:44;2540,2185;958,6673;136,1;17,73;123,1;0,54;-0,3;145;2,4;299;19,7;19,2;40,1;1008,2;106,845;1080,18;-0,5175;6133,05;6002,15;106,866;1085,78;-0,225;6148,45;6289,94;0;-0,001;-0,001;-0,001;-0,001;-0,001
25.05.2025;10:47:45;2540,2149;958,6719;136,2;17,73;123,1;0,52;-0,3;147;2,4;299;19,8;19,2;40,1;1008,2;106,845;1074,21;-0,5175;6117,65;6045,46;106,888;1086,27;-0,18;6146,52;6230,26;0,001;-0,001;-0,001;-0,001;-0,001;-0,001
25.05.2025;10:47:46;2540,2114;958,6765;136,1;17,73;123;0,51;-0,29;145;2,4;299;19,7;19,2;40,1;1008,2;106,484;1075,79;-0,5175;6091,66;6021,4;106,888;1086,64;-0,18;6139,79;6248,55;0,001;-0,001;-0,001;-0,001;-0,001;-0,001
25.05.2025;10:47:47;2540,2078;958,6811;136,2;17,74;123;0,53;-0,29;142;2,5;299;19,8;19,2;40,1;1008,2;106,484;1076,4;-0,5175;6125,35;5989,64;106,866;1080,91;-0,225;6154,23;6196,58;0;-0,001;-0,001;-0,001;-0,001;-0,001
25.05.2025;10:47:48;2540,2042;958,6857;136,3;17,75;123;0,55;-0,29;138;2,8;298;19,9;19,2;40,1;1008,2;106,208;1076,03;-0,6075;6091,66;5959,8;106,739;1085,78;-0,225;6137,86;6085,89;0;-0,001;-0,001;-0,001;-0,001;-0,001
25.05.2025;10:47:49;2540,2007;958,6903;136,3;17,75;123;0,58;-0,29;134;3,2;296;20,1;19,2;40,1;1008,2;106,335;1078,23;-0,6075;6083;5952,1;106,463;1086,03;-0,225;6145,56;6250,48;0,001;-0,001;-0,001;-0,001;-0,001;-0,001
